[
  {
    "id": 1,
    "name": "제주국제공항",
    "latitude": "33.507",
    "longitude": "126.4928",
    "province": "제주특별자치도",
    "city": "제주시",
    "address": "제주 제주시 공항로 2-0",
    "category": "관광지",
    "detailed_category": "기타관광",
    "information": "국내 목적지와 중국, 일본, 타이완의 도시로 운항하는 제주국제공항입니다.",
    "img": "https://api.cdn.visitjeju.net/photomng/imgpath/202401/15/cc0c1682-88a5-4ed0-a4ce-f56a00aa5964.JPG"
  },
  {
    "id": 2,
    "name": "동문재래시장",
    "latitude": "33.5122",
    "longitude": "126.5275",
    "province": "제주특별자치도",
    "city": "제주시",
    "address": "제주 제주시 관덕로14길 20-0",
    "category": "쇼핑",
    "detailed_category": "시장",
    "information": "제주의 명품 감귤과 과일, 토산품, 화산토에서 자란 농산물, 청정한 자연환경속에서 자란 수산물과 축산물, 그리고 건어물이 준비되어 있는 곳입니다. ",
    "img": "https://api.cdn.visitjeju.net/photomng/imgpath/202008/21/60e6d2a4-064c-49b3-919a-dbb812c86969.JPG"
  },
  {
    "id": 3,
    "name": "협재해수욕장",
    "latitude": "33.3941",
    "longitude": "126.2396",
    "province": "제주특별자치도",
    "city": "제주시",
    "address": "제주 제주시 한림읍 협재리 2497-1",
    "category": "관광지",
    "detailed_category": "자연관광",
    "information": "한림읍 서해안 지대에 위치하며 조개껍질이 많이 섞인 은모래가 펼쳐지는데, 수심이 얕고 경사가 완만하기 때문에 수영 초보자에게도 알맞은 해수욕장입니다.",
    "img": "https://api.cdn.visitjeju.net/photomng/imgpath/202110/20/32ec3ee6-fad9-440d-95ea-628ff6453a48.jpg"
  },
  {
    "id": 4,
    "name": "함덕해수욕장",
    "latitude": "33.5433",
    "longitude": "126.6697",
    "province": "제주특별자치도",
    "city": "제주시",
    "address": "제주 제주시 조함해안로 525-0",
    "category": "관광지",
    "detailed_category": "자연관광",
    "information": "푸른 잉크 속으로 풍덩 고운 백사장과 얕은 바다 속 패사층이 만들어내는 푸른빛 바다가 아름다운 해수욕장입니다. ",
    "img": "https://api.cdn.visitjeju.net/photomng/imgpath/201908/29/6fa8ac92-91b1-4314-a05e-0c962f9ab2f8.jpg"
  },
  {
    "id": 5,
    "name": "곽지해수욕장",
    "latitude": "33.4505",
    "longitude": "126.3048",
    "province": "제주특별자치도",
    "city": "제주시",
    "address": "제주 제주시 애월읍 곽지리",
    "category": "관광지",
    "detailed_category": "자연관광",
    "information": "자연관광','제주특별자치도 제주시 애월읍 곽지리에 있는 해수욕장으로, 길이 약 350m, 폭 70m의 백사장과 평균 수심 1.5m의 비교적 좋은 조건을 갖추었습니다.",
    "img": "https://api.cdn.visitjeju.net/photomng/imgpath/201912/12/590903b3-88f5-4e15-9f7e-d5a3571122c6.jpg"
  },
  {
    "id": 6,
    "name": "이호테우해변",
    "latitude": "33.4979",
    "longitude": "126.453",
    "province": "제주특별자치도",
    "city": "제주시",
    "address": "제주 제주시 이호일동",
    "category": "관광지",
    "detailed_category": "자연관광",
    "information": "제주특별자치도 제주시 이호동에 있는 해수욕장으로, 제주 시내에서 서쪽으로 약 7㎞ 지점에 있어 도심에서 가장 가까운 해수욕장입니다.",
    "img": "https://api.cdn.visitjeju.net/photomng/imgpath/201808/08/59540ad4-8bdd-4080-8cbc-a2e8988ff04b.jpg"
  },
  {
    "id": 7,
    "name": "아르떼뮤지엄/제주",
    "latitude": "33.3966",
    "longitude": "126.345",
    "province": "제주특별자치도",
    "city": "제주시",
    "address": "제주 제주시 어림비로 478-0",
    "category": "관광지",
    "detailed_category": "문화관광",
    "information": "국내최대몰입형 미디어아트전시관입니다.코엑스 WAVE 작품으로 유명한 세계 수준의 디지털 디자인 컴퍼니 d-strict가 선보이는 국내 최대 규모의 몰입형 미디어아트 전시관입니다.",
    "img": "https://dimg04.c-ctrip.com/images/0M72b120009eap8qfF342_Q60.jpg_.webp"
  },
  {
    "id": 8,
    "name": "비자림",
    "latitude": "33.4844",
    "longitude": "126.7597",
    "province": "제주특별자치도",
    "city": "제주시",
    "address": "제주 제주시 해맞이해안로 7-6",
    "category": "관광지",
    "detailed_category": "자연관광",
    "information": "제주특별자치도 제주시 구좌읍 동김녕리에 있는 해수욕장입니다. 주변에 김녕사굴, 만장굴, 김녕미로공원, 제주공예단지, 함덕해수욕장 등 관광명소가 많이 있습니다.",
    "img": "https://api.cdn.visitjeju.net/photomng/imgpath/201804/30/9052cc74-1186-45ab-ba71-9f9e6c8debaf.jpg"
  },
  {
    "id": 9,
    "name": "신창풍차해안도로",
    "latitude": "33.3419",
    "longitude": "126.1706",
    "province": "제주특별자치도",
    "city": "제주시",
    "address": "제주 제주시",
    "category": "관광지",
    "detailed_category": "기타관광",
    "information": "제주도 서쪽 끝을 따라 연결된 신창 풍차 해안도로는 해상풍력단지가 조성되어 있어 해안도로를 따라 줄지어 서 있는 풍차를 만날 수 있습니다. 특히 신창 해안도로는 아름다운 일몰로도 손꼽히는 장소이기에 사진을 찍고 일몰을 감상하는 것도 좋습니다.",
    "img": "https://cdn.imweb.me/upload/S202102037fbde4075d092/02637195499cf.jpg"
  },
  {
    "id": 10,
    "name": "금오름",
    "latitude": "33.3545",
    "longitude": "126.3058",
    "province": "제주특별자치도",
    "city": "제주시",
    "address": "제주 제주시 한림읍 금악리 산1-1",
    "category": "관광지",
    "detailed_category": "자연관광",
    "information": "서부 중산간 지역의 대표적인 오름 중의 하나입니다.",
    "img": "https://d2ur7st6jjikze.cloudfront.net/offer_photos/99683/541693_large_1602562112.jpg?1602562112"
  },
  {
    "id": 11,
    "name": "금능해수욕장",
    "latitude": "33.3899",
    "longitude": "126.2353",
    "province": "제주특별자치도",
    "city": "제주시",
    "address": "제주 제주시 금능길 119-10",
    "category": "관광지",
    "detailed_category": "자연관광",
    "information": "투명한 맑은 물과 흰모래와 조가비가 섞여 길게 이어진 아름다운 백사장. 낙조의 경관이 환상적인 이곳 앞바다에는 비양도가 있습니다.",
    "img": "https://mediaim.expedia.com/destination/1/1cc19f2490b0b5562b7728e4f9159970.jpg"
  },
  {
    "id": 12,
    "name": "새별오름",
    "latitude": "33.3662",
    "longitude": "126.3577",
    "province": "제주특별자치도",
    "city": "제주시",
    "address": "제주 제주시 애월읍 봉성리 산59-8",
    "category": "관광지",
    "detailed_category": "자연관광",
    "information": "제주특별자치도 제주시 애월읍 봉성리에 있는 기생화산입니다. 해발 519.3m, 높이 119m 인 기생화산으로 분화구의 형태는 복합형입니다.",
    "img": "https://api.cdn.visitjeju.net/photomng/imgpath/202110/20/380f2ed7-9680-4f51-a5f7-1c52771d3c11.jpg"
  },
  {
    "id": 13,
    "name": "용두암",
    "latitude": "33.516",
    "longitude": "126.512",
    "province": "제주특별자치도",
    "city": "제주시",
    "address": "제주 제주시 용두암길 15-0",
    "category": "관광지",
    "detailed_category": "기타관광",
    "information": "용두암 부근은 높은 절벽을 이루고 있고, 동쪽과 서쪽으로는 지형이 완만해지는 것으로 보아 두꺼운 용암이 흘렀을 것으로 추측됩니다.",
    "img": "https://api.cdn.visitjeju.net/photomng/imgpath/202110/26/f75fe5b6-e977-4076-aabf-906650536fc0.JPG"
  },
  {
    "id": 14,
    "name": "스누피가든",
    "latitude": "33.444",
    "longitude": "126.7783",
    "province": "제주특별자치도",
    "city": "제주시",
    "address": "제주 제주시 금백조로 930-0",
    "category": "관광지",
    "detailed_category": "기타관광",
    "information": "스누피 가든 하우스는 감정에 솔직하고 개성있는 피너츠 친구들을 만나 그들 간의 상호 관계를 통한 공감과 위로의 메세지를 얻는 곳입니다.",
    "img": "https://www.jejumobile.kr/datas/0c2a615044cb84fa4931aeed9ab16ce7.jpg"
  },
  {
    "id": 15,
    "name": "사려니숲길",
    "latitude": "33.415",
    "longitude": "126.6485",
    "province": "제주특별자치도",
    "city": "제주시",
    "address": "제주 제주시 조천읍 교래리 산137-1",
    "category": "관광지",
    "detailed_category": "레저스포츠",
    "information": "제주의 숨은 비경 31곳 중 하나로, 비자림로를 시작으로 물찻오름과 사려니 오름을 거쳐가는 삼나무가 우거진 숲길입니다. 사려니오름까지 이어지는 숲길이기 때문에 사려니숲길이라고 불립니다.",
    "img": "https://api.cdn.visitjeju.net/photomng/imgpath/201908/19/4a7384f3-3ea5-4b56-a519-20cd569686b1.jpg"
  },
  {
    "id": 16,
    "name": "월정리해변",
    "latitude": "33.5559",
    "longitude": "126.7961",
    "province": "제주특별자치도",
    "city": "제주시",
    "address": "제주 제주시 구좌읍 월정리 33-3",
    "category": "관광지",
    "detailed_category": "자연관광",
    "information": "제주도의 동쪽에 위치하고 있는 마을인 월정리는 달이 머문다는 뜻의 이름을 가진 서정적인 풍경의 마을입니다. ",
    "img": "https://api.cdn.visitjeju.net/photomng/imgpath/201804/30/ec362343-4c4b-4da2-905d-1d4be8b26d44.jpg"
  },
  {
    "id": 17,
    "name": "만장굴",
    "latitude": "33.5278",
    "longitude": "126.7693",
    "province": "제주특별자치도",
    "city": "제주시",
    "address": "제주시 만장굴길 182-0",
    "category": "관광지",
    "detailed_category": "자연관광",
    "information": "1962년 12월 7일 김녕사굴과 함께 천연기념물로 지정되었습니다. 총 길이 약 7.4km, 최대 높이 23m, 최대 폭은 18m이며, 1977∼1986년까지 한·일합동조사가 실시되었습니다.",
    "img": "https://api.cdn.visitjeju.net/photomng/imgpath/202110/28/a8c617a7-0b5e-4771-825b-c68d96904443.jpg"
  }
]
